geometry,latitude,longitude,OBJECTID,LANDXADDRESSPOINT,LANDYADDRESSPOINT,ADDRESSBUILDINGNAME,ADDRESSPOSTALCODE,ADDRESSSTREETNAME,DESCRIPTION,NAME,PHOTOURL,ADDRESSBLOCKHOUSENUMBER,STATUS,AWARDED_DATE,IMPLEMENTATION_DATE,INFO_ON_CO_LOCATORS,ADDRESS_MYENV,EST_ORIGINAL_COMPLETION_DATE,HUP_COMPLETION_DATE,NUMBER_OF_COOKED_FOOD_STALLS,INC_CRC,FMEL_UPD_D
"{""type"":""Point"",""coordinates"":[103.84661927383159,1.2792312094873002]}",1.2792312094873002,103.84661927383159,119091,29433.14995771,29089.97730924,MND COMPLEX (ANNEXE B),069111,MAXWELL ROAD,HUP Standard Upgrading,Amoy Street Food Centre (Telok Ayer Food Centre),http://www.nea.gov.sg/images/default-source/Hawker-Centres-Division/resize_1265968760190.jpg,7,Existing,,,,"National Development Building, Annex B, Telok Ayer Street, Singapore 069111",1983,17/02/2003,134,1166A0D172748172,20250807100106
"{""type"":""Point"",""coordinates"":[103.80469379769634,1.2974865589089906]}",1.2974865589089906,103.80469379769634,119092,24814.31527037,31095.00824627,SKYRESIDENCE @ DAWSON,142038,Margaret Drive,New Replacement Centre,Margaret Drive Hawker Centre,,38A,Existing (replacement),11/05/2015,02/12/2015,hawker centre/branch office,,30/3/2022,,38,939D0746E9A0AAE2,20250807100106
"{""type"":""Point"",""coordinates"":[103.90854260132319,1.4145180096913892]}",1.4145180096913892,103.90854260132319,119093,36371.36760127,44035.86651297,PUNGGOL COAST MALL,829911,Punggol Way,New Centre,Punggol Coast Hawker Centre,,84,Existing (new),08/08/2019,21/08/2019,hawker centre/community club/bus interchange/childcare centre/JTC industrial units,,21/8/2024,,40,6C6754A6627194EC,20250807100106
"{""type"":""Point"",""coordinates"":[103.8084289682175,1.2732499271477487]}",1.2732499271477487,103.8084289682175,119094,25229.98055708,28415.04195251,TELOK BLANGAH BEACON,103078,Telok Blangah Drive,New Replacement Centre,Telok Blangah Hawker Centre & Market,,78C,Under Construction,29/04/2022,20/05/2022,hawker centre/market/flats,,2027,,40,4D0564D8E8B5675A,20250807100106
"{""type"":""Point"",""coordinates"":[103.77633041443977,1.33923656638092]}",1.33923656638092,103.77633041443977,119095,21621.86891067,35735.43508407,BUKIT TIMAH MARKET,588215,Upper Bukit Timah Road,New Replacement Centre,Bukit Timah Market,,51,Under Construction,01/10/2024,15/10/2024,hawker centre/market/community club/indoor sports hall/senior care centre,"51, Upper Bukit Timah Road, Singapore 588215",2029,,82,AF868AA387991B66,20250807100106
"{""type"":""Point"",""coordinates"":[103.77521471399332,1.3407879159379656]}",1.3407879159379656,103.77521471399332,119096,35883.10858126,21533.66534254,,599213,JALAN SEH CHUAN,Interim Centre,Bukit Timah Interim Hawker Centre and Market,,2A,Interim Centre,,,,,1/10/2024,,78,37DE6597552D28E4,20250807100106
"{""type"":""Point"",""coordinates"":[103.9377763570609,1.3668484230579017]}",1.3668484230579017,103.9377763570609,119097,39624.90661716,38764.92237267,Parktown,529385,TAMPINES STREET 62,New Centre,Tampines North Hawker Centre,,27,Under Construction,,27/08/2024,hawker centre/community club/bus interchange/private residential and commercial units,,2030,,40,6CAF40EF5E9B7FB7,20250807100106
"{""type"":""Point"",""coordinates"":[103.79803174152435,1.299651001320326]}",1.299651001320326,103.79803174152435,119098,24072.89074837,31334.3504509,Tanglin Halt Courtyard,141017,Tanglin Halt Road,New Replacement Centre,Tanglin Halt Hawker Centre & Market,,17A,Under Construction,30/08/2024,20/09/2024,hawker centre/flats,,2029,,0,6BC0F4F0D3A4D5C1,20250807100106
"{""type"":""Point"",""coordinates"":[103.85499618356134,1.323064938171913]}",1.323064938171913,103.85499618356134,119099,30412.5008994,33923.32628219,WHAMPOA DRIVE MAKAN PLACE,320090,Whampoa Drive,HUP Standard Upgrading,Whampoa Drive Blk 90 (Whampoa Drive Makan Place/Whampoa Food Centre),http://www.nea.gov.sg/images/default-source/Hawker-Centres-Division/resize_1262154207158.jpg,90,Existing,,,,"Blk 90, Whampoa Drive, Singapore 320090",26/8/1976,25/10/2007,80,7038893DAD96F8E1,20241211100036
"{""type"":""Point"",""coordinates"":[103.79141090894716,1.2759179745717486]}",1.2759179745717486,103.79141090894716,119100,23336.00796759,28710.08548007,PASIR PANJANG FOOD CENTRE,118543,Pasir Panjang Road,HUP Standard Upgrading,Pasir Panjang Food Centre,http://www.nea.gov.sg/images/default-source/Hawker-Centres-Division/resize_1262155813373.jpg,121,Existing,,,,"121, Pasir Panjang Road, Singapore 118543",1978,20/05/2002,45,55A1F6785365972F,20241211100036
"{""type"":""Point"",""coordinates"":[103.8431616772891,1.276613670144106]}",1.276613670144106,103.8431616772891,119101,29095.45853841,28786.97596554,TANJONG PAGAR PLAZA,081006,Tanjong Pagar Plaza,HUP Standard Upgrading,Tanjong Pagar Plaza Blk 6 (Blk 6 Tanjong Pagar Plaza Market and Food Centre),http://www.nea.gov.sg/images/default-source/Hawker-Centres-Division/blk-6-tanjong-pagar-plaza.jpg,6,Existing,,,,"Blk 6, Tanjong Pagar Plaza, Singapore 081006",18/4/1977,27/12/2013,52,ADDEDD133E1F968B,20241211100036
"{""type"":""Point"",""coordinates"":[103.69724185257508,1.3412641038830853]}",1.3412641038830853,103.69724185257508,119102,12856.11635706,35936.10730619,JURONG WEST HAWKER CENTRE,648202,Jurong West Street 61,New Centre,Jurong West Hawker Centre,http://www.nea.gov.sg/images/default-source/Hawker-Centres-Division/jurong-west-hawker-centre.jpg,50,Existing (new),23/09/2015,15/10/2015,,"Blk 50, Jurong West St 61, Singapore 648202",28/7/2017,,39,8AC6AC7034FD5DC8,20241211100036
"{""type"":""Point"",""coordinates"":[103.88580870625425,1.3082518466799975]}",1.3082518466799975,103.88580870625425,119103,33841.66208167,32285.42134951,51 OLD AIRPORT ROAD FOOD CENTRE AND SHOPPING MALL,390051,Old Airport Road,HUP Standard Upgrading,Old Airport Road Blk 51 (51 Old Airport Road Food Centre and Shopping Mall),http://www.nea.gov.sg/images/default-source/Hawker-Centres-Division/resize_1262153198645.jpg,51,Existing,,,,"Blk 51, Old Airport Road, Singapore 390051",17/2/1973,12/06/2007,168,E436B48DB84F32A2,20241211100036
"{""type"":""Point"",""coordinates"":[103.81831119566189,1.2873075147506794]}",1.2873075147506794,103.81831119566189,119104,26329.80446052,29969.44892915,REDHILL FOOD CENTRE,150085,Redhill Lane,HUP Reconfiguration,Redhill Lane Blk 85 (Redhill Food Centre),http://www.nea.gov.sg/images/default-source/Hawker-Centres-Division/resize_1262153717849.jpg,85,Existing,,,,"Blk 85, Redhill Lane, Singapore 150085",4/4/1972,17/06/2005,96,DB85A755C30426D2,20241211100036
"{""type"":""Point"",""coordinates"":[103.81835209769348,1.2878431730128634]}",1.2878431730128634,103.81835209769348,119105,26334.35685607,30028.6791963,REDHILL MARKET,150079,Redhill Lane,HUP Reconfiguration,Redhill Lane Blk 79 (Redhill Market),http://www.nea.gov.sg/images/default-source/Hawker-Centres-Division/resize_1262153664347.jpg,79,Existing,,,,"Blk 79, Redhill Lane, Singapore 150079",1/1/1969,28/06/2005,0,279C715AF7D21D96,20241211100036
"{""type"":""Point"",""coordinates"":[103.90516945745766,1.4087476457286714]}",1.4087476457286714,103.90516945745766,119106,35996.00401381,43397.79641023,ONE PUNGGOL,828629,Punggol Drive,New Centre,One Punggol Hawker Centre,,1,Existing (new),08/08/2018,29/08/2018,hawker centre/Regional Library/Senior Care Centre/Branch Office/Child Development Centre/Blood Collection Centre/Kidney Dialysis Centre/Childcare Centre,,29/4/2022,,34,618B2F8F2FDF8376,20241211100036
"{""type"":""Point"",""coordinates"":[103.95547759902762,1.320350159875293]}",1.320350159875293,103.95547759902762,119090,41595.43450447,33623.13262694,BEDOK FOOD CENTRE,469572,Bedok Road,HUP Rebuilding,Bedok Food Centre,http://www.nea.gov.sg/images/default-source/Hawker-Centres-Division/resize_1265176030572.jpg,1,Existing,,,,"1, Bedok Road, Singapore 469572",1971,06/02/2005,32,C103CAE4E1592F3B,20250807100106
"{""type"":""Point"",""coordinates"":[103.8227636322519,1.4482633636853246]}",1.4482633636853246,103.8227636322519,119107,26825.4015597,47767.12514614,BUKIT CANBERRA,756973,Canberra Link,New Centre,Bukit Canberra Hawker Centre,,21,Existing (new),01/05/2018,17/05/2018,hawker centre/Town Sports and Recreational Centre/Primary Care Centre & Senior Care Centre,,27/9/2022,,44,824B5B1579707F78,20241211100036
"{""type"":""Point"",""coordinates"":[103.84582428335005,1.2852950787883]}",1.2852950787883,103.84582428335005,119124,29391.78070667,29746.92264769,HONG LIM COMPLEX,051531,Upper Cross Street,HUP Reconfiguration,Upper Cross Street Blk 531A (Hong Lim Food Centre and Market),http://www.nea.gov.sg/images/default-source/Hawker-Centres-Division/resize_1267878882405.jpg,531A,Existing,,,,"Blk 531A, Upper Cross Street, Singapore 051531",28/1/1978,09/03/2011,103,31D020670D33DCF0,20241211100036
"{""type"":""Point"",""coordinates"":[103.90634383419179,1.3022965558595991]}",1.3022965558595991,103.90634383419179,119125,36127.05067191,31626.97247923,MARINE PARADE PROMENADE,440084,Marine Parade Central,Opted out of HUP,Marine Parade Central Blk 84 (84 Marine Parade Central Market and Food Centre),http://www.nea.gov.sg/images/default-source/Hawker-Centres-Division/resize_1267875360164.jpg,84,Existing,,,,"Blk 84, Marine Parade Central, Singapore 440084",23/8/1976,,55,CAD9953C3F96445A,20241211100036
"{""type"":""Point"",""coordinates"":[103.7770061037781,1.4434162431254685]}",1.4434162431254685,103.7770061037781,119126,21733.29879772,47231.22967719,MARSILING LANE MARKET & COOKED FOOD CENTRE,730020,Marsiling Lane,HUP Standard Upgrading,Marsiling Lane Blk 20/21,http://www.nea.gov.sg/images/default-source/Hawker-Centres-Division/resize_1262152527264.jpg,20,Existing,,,,"Blk 20/21, Marsiling Lane, Singapore 730020/730021",15/9/1975,02/03/2009,52,021B75E01E8600C5,20241211100036
"{""type"":""Point"",""coordinates"":[103.85406019787618,1.323428186962711]}",1.323428186962711,103.85406019787618,119127,30308.33469282,33963.49162417,WHAMPOA DRIVE MAKAN PLACE,320091,Whampoa Drive,HUP Standard Upgrading,Whampoa Drive Blk 91/92 (Whampoa Drive Makan Place/Whampoa Market),http://www.nea.gov.sg/images/default-source/Hawker-Centres-Division/resize_1262154257763.jpg,91,Existing,,,,"Blk 91/92, Whampoa Drive, Singapore 320091/320092",3/1/1973,25/10/2007,52,2F4E1C95D78E0885,20241211100036
"{""type"":""Point"",""coordinates"":[103.94112527731751,1.3242008730218346]}",1.3242008730218346,103.94112527731751,119128,39997.81032558,34049.1824351,MARKET & HAWKER CENTRE (BLK 58 NEW UPPER CHANGI ROAD),461058,New Upper Changi Road,HUP Standard Upgrading,New Upper Changi Road Blk 58,http://www.nea.gov.sg/images/default-source/Hawker-Centres-Division/resize_1262153263293.jpg,58,Existing,,,,"Blk 58, New Upper Changi Road, Singapore 461058",27/2/1978,16/09/2008,48,2814DABD52507565,20241211100036
"{""type"":""Point"",""coordinates"":[103.84474752510276,1.4249878627577708]}",1.4249878627577708,103.84474752510276,119129,29271.87369569,45193.43761289,YISHUN PARK HAWKER CENTRE,768867,Yishun Avenue 11,New Centre,Yishun Park Hawker Centre,http://www.nea.gov.sg/images/default-source/Hawker-Centres-Division/yishun-hawker-centre.jpg,51,Existing (new),23/10/2015,25/11/2015,,"Blk 51, Yishun Avenue 11, Singapore 768867",3/7/2017,,45,BDA5598A8F865DCE,20241211100036
"{""type"":""Point"",""coordinates"":[103.8311890232012,1.2923422109888436]}",1.2923422109888436,103.8311890232012,119130,27762.99884696,30526.15484762,ZION RIVERSIDE FOOD CENTRE,247792,Zion Road,HUP Standard Upgrading,Zion Riverside Food Centre,http://www.nea.gov.sg/images/default-source/Hawker-Centres-Division/resize_1267879560483.jpg,70,Existing,,,,"70, Zion Road, Singapore 247792",1976,05/03/2003,32,83E8F60A7EF7A206,20241211100036
"{""type"":""Point"",""coordinates"":[103.88710266901265,1.3278341461996204]}",1.3278341461996204,103.88710266901265,119131,33985.62142484,34450.73539548,CIRCUIT ROAD MARKET AND FOOD CENTRE,370080,Circuit Road,HUP Reconfiguration,Circuit Road Blk 80 (80 Circuit Road Market and Food Centre),http://www.nea.gov.sg/images/default-source/Hawker-Centres-Division/resize_1262153912521.jpg,80,Existing,,,,"Blk 80, Circuit Road, Singapore 370080",1/9/1967,22/02/2003,16,AB5C1E1A448F2835,20241211100036
"{""type"":""Point"",""coordinates"":[103.8854388424852,1.3235797144355712]}",1.3235797144355712,103.8854388424852,119132,33800.46429877,33980.2979524,MARKET & HAWKER CENTRE (BLK 89 CIRCUIT ROAD),370089,Circuit Road,HUP Standard Upgrading,Circuit Road Blk 89,http://www.nea.gov.sg/images/default-source/Hawker-Centres-Division/resize_1262154127554.jpg,89,Existing,,,,"Blk 89, Circuit Road, Singapore 370089",1/9/1967,08/04/2009,40,613090DEE51F36E8,20241211100036
"{""type"":""Point"",""coordinates"":[103.81865152419587,1.2773681323059345]}",1.2773681323059345,103.81865152419587,119133,26367.6739154,28870.40309451,MARKET & HAWKER CENTRE (BLK 11 TELOK BLANGAH CRESCENT),090011,Telok Blangah Crescent,HUP Standard Upgrading,Telok Blangah Crescent Blk 11 (11 Telok Blangah Crescent Market and Food Centre),http://www.nea.gov.sg/images/default-source/Hawker-Centres-Division/resize_1267876741836.gif,11,Existing,,,,"Blk 11, Telok Blangah Crescent, Singapore 090011",19/10/1974,15/01/2010,56,02A637E3D6AEBF49,20241211100036
"{""type"":""Point"",""coordinates"":[103.844747227493,1.2803314273259558]}",1.2803314273259558,103.844747227493,119134,29271.91579845,29198.06709401,MAXWELL FOOD CENTRE,069184,Kadayanallur Street,Upgraded prior to HUP,Maxwell Food Centre (Kim Hua Market),http://www.nea.gov.sg/images/default-source/Hawker-Centres-Division/resize_1262155734465.jpg,1,Existing,,,,"1, Kadayanallur Street, Singapore 069184",1935,,103,53F6851F17ED3342,20241211100036
"{""type"":""Point"",""coordinates"":[103.83993416821488,1.2882310148481062]}",1.2882310148481062,103.83993416821488,119135,28736.25908337,30071.56084768,HAWKER CENTRE (BLK 1 JALAN KUKOH),161001,Jalan Kukoh,HUP Standard Upgrading,Jalan Kukoh Blk 1 (Kukoh 21 Food Centre),http://www.nea.gov.sg/images/default-source/Hawker-Centres-Division/resize_1267874440744.jpg,1,Existing,,,,"Blk 1, Jalan Kukoh, Singapore 161001",21/1/1969,04/10/2010,21,A0377018CD4143D3,20241211100036
"{""type"":""Point"",""coordinates"":[103.88390947410478,1.3023603479067136]}",1.3023603479067136,103.88390947410478,119136,33630.30825783,31633.96514017,JALAN BATU HAWKER CENTRE,432004,Jalan Batu,HUP Standard Upgrading,Jalan Batu Blk 4A (Blk 4A Jalan Batu Hawker Centre/Market),http://www.nea.gov.sg/images/default-source/Hawker-Centres-Division/resize_1267874223880.jpg,4A,Existing,,,,"Blk 4A, Jalan Batu, Singapore 432004",3/1/1969,16/02/2012,36,DC41C229359D7CA1,20241211100036
"{""type"":""Point"",""coordinates"":[103.85295698796516,1.3360207676183897]}",1.3360207676183897,103.85295698796516,119137,30185.54741077,35355.91370476,HAWKER CENTRE (BLK 75 TOA PAYOH LORONG 5),310075,Lorong 5 Toa Payoh,HUP Standard Upgrading,Toa Payoh Lorong 5 Blk 75,http://www.nea.gov.sg/images/default-source/Hawker-Centres-Division/resize_1267878144152.jpg,75,Existing,,,,"Blk 75, Lorong 5 Toa Payoh, Singapore 310075",5/2/1968,21/11/2012,36,7F82C64B6EC8A6E8,20241211100036
"{""type"":""Point"",""coordinates"":[103.74207854445496,1.3554458319148786]}",1.3554458319148786,103.74207854445496,119138,17846.02453864,37504.02061386,HARMONY VILLAGE @ BUKIT BATOK,651469,Bukit Batok West Avenue 9,New Centre,Bukit Batok West Hawker Centre,,469A,Existing (new),31/12/2020,21/01/2021,hawker centre/flats,,8/10/2024,,22,1EA00E0F08A6796D,20250405100117
"{""type"":""Point"",""coordinates"":[103.87698146168532,1.3917019249885314]}",1.3917019249885314,103.87698146168532,119139,32859.10618426,41512.88856731,FERNVALE COMMUNITY CLUB,797650,Sengkang West Avenue,New Centre,Fernvale Hawker Centre & Market,,21,Existing (new),30/07/2018,13/08/2018,hawker centre/market/community club,,22/3/2022,,28,80E2507B65CA2D42,20250405100117
"{""type"":""Point"",""coordinates"":[103.82182325630666,1.2855044556549065]}",1.2855044556549065,103.82182325630666,119140,26720.66637556,29770.07390201,MARKET & HAWKER CENTRE (BLK 115 BUKIT MERAH VIEW),151115,Bukit Merah View,HUP Standard Upgrading,Bukit Merah View Blk 115 (Blk 115 Bukit Merah View Market and Food Centre),http://www.nea.gov.sg/images/default-source/Hawker-Centres-Division/resize_1267851251303.jpg,115,Existing,,,,"Blk 115, Bukit Merah View, Singapore 151115",29/3/1973,28/02/2012,84,86A439305E56C403,20241211100036
"{""type"":""Point"",""coordinates"":[103.84824216615792,1.36410720947631]}",1.36410720947631,103.84824216615792,119141,29660.81846691,38461.56544071,TECK GHEE COURT,560341,Ang Mo Kio Ave 1,HUP Rebuilding,Ang Mo Kio Ave 1 Blk 341 (Teck Ghee Court),http://www.nea.gov.sg/images/default-source/Hawker-Centres-Division/resize_1275538105392.jpg,341,Existing,,,,"Blk 341, Ang Mo Kio Ave 1, Singapore 560341",1979,01/03/2002,32,C86DAA1AA5479123,20241211100036
"{""type"":""Point"",""coordinates"":[103.85200350902804,1.3345507486923793]}",1.3345507486923793,103.85200350902804,119142,30079.4365165,35193.36570315,TOA PAYOH VISTA MARKET,310074,Lorong 4 Toa Payoh,HUP Reconfiguration,Toa Payoh Lorong 4 Blk 74 (Toa Payoh Vista Market),http://www.nea.gov.sg/images/default-source/Hawker-Centres-Division/resize_1262226848493.jpg,74,Existing,,,,"Blk 74, Lorong 4 Toa Payoh, Singapore 310074",9/9/1968,01/11/2004,10,12A7E826630D2548,20241211100036
"{""type"":""Point"",""coordinates"":[103.90425647876752,1.3203312605225548]}",1.3203312605225548,103.90425647876752,119143,35894.69026201,33621.1522533,MARKET & HAWKER CENTRE (BLK 4A EUNOS CRESCENT),402004,Eunos Crescent,HUP Standard Upgrading,Eunos Crescent Blk 4A,http://www.nea.gov.sg/images/default-source/Hawker-Centres-Division/resize_1267873497497.jpg,4A,Existing,,,,"Blk 4A, Eunos Crescent, Singapore 402004",7/7/2000,30/03/2012,42,A7EDE1BAA2F8D19D,20241211100036
"{""type"":""Point"",""coordinates"":[103.8720137732096,1.3397910139953648]}",1.3397910139953648,103.8720137732096,119144,32306.35989314,35772.83350859,WOODLEIGH VILLAGE,363202,Woodleigh Link,New Centre,Woodleigh Village Hawker Centre,,202C,Existing (new),30/06/2017,21/07/2017,hawker centre/flats/bus interchange,,17/1/2024,,40,D99699804543D3C2,20241211100036
"{""type"":""Point"",""coordinates"":[103.76108397650307,1.387194004486905]}",1.387194004486905,103.76108397650307,119145,19961.21958592,41014.50336308,SENJA HAWKER CENTRE,677632,Senja Close,New Centre,Senja Hawker Centre,,2,Existing (new),11/12/2018,01/03/2019,,,28/7/2022,,28,BDE6F19643926DB2,20241211100036
"{""type"":""Point"",""coordinates"":[103.93479973740149,1.3072610657579828]}",1.3072610657579828,103.93479973740149,119146,39293.91616624,32176.03291689,EAST COAST LAGOON FOOD VILLAGE,468960,East Coast Parkway,HUP Rebuilding,East Coast Lagoon Food Village,http://www.nea.gov.sg/images/default-source/Hawker-Centres-Division/resize_1262155504536.jpg,1220,Existing,,,,"1220, East Coast Parkway, Singapore 468960",1978,10/12/2003,63,6076433DB3ADB498,20241211100036
"{""type"":""Point"",""coordinates"":[103.81707271810343,1.2836613955382454]}",1.2836613955382454,103.81707271810343,119147,26191.96978332,29566.28074809,,150163,Bukit Merah Central,Opted out of HUP,Bukit Merah Central Blk 163 (Bukit Merah Central Food Centre),http://www.nea.gov.sg/images/default-source/Hawker-Centres-Division/resize_1267851995788.jpg,163,Existing,,,,"Blk 163, Bukit Merah Central, Singapore 150163",5/5/1980,,57,7A2AF435EA225D78,20241211100036
"{""type"":""Point"",""coordinates"":[103.71280068056076,1.3452240653958958]}",1.3452240653958958,103.71280068056076,119148,14587.67182369,36373.88983235,BOON LAY PLACE MARKET AND FOOD VILLAGE,641221,Boon Lay Place,HUP Reconfiguration,Boon Lay Place Blk 221A/B (Boon Lay Place Market and Food Village),http://www.nea.gov.sg/images/default-source/Hawker-Centres-Division/resize_1262154766447.jpg,221A,Existing,,,,"Blk 221A/B, Boon Lay Place, Singapore 641221/642221",2/1/1976,01/08/2004,72,8CAF7E1407BC0063,20241211100036
"{""type"":""Point"",""coordinates"":[103.85411577872539,1.3011020159948925]}",1.3011020159948925,103.85411577872539,119149,30314.5408402,31494.77827106,ALBERT CENTRE,180270,Queen Street,HUP Standard Upgrading,Queen Street Blk 270 (Albert Centre),http://www.nea.gov.sg/images/default-source/Hawker-Centres-Division/resize_1267850253199.jpg,270,Existing,,,,"Blk 270, Queen Street, Singapore 180270",7/8/1978,26/11/2009,86,48082B702E1A43A8,20241211100036
"{""type"":""Point"",""coordinates"":[103.85000596089957,1.2839000647082708]}",1.2839000647082708,103.85000596089957,119150,29857.16763399,29592.67182685,CAPITASPRING,048947,Market Street,New Replacement Centre,Market Street Hawker Centre,,86,Existing (replacement),17/07/2017,01/08/2017,hawker centre/commercial space,,15/11/2021,,53,0E7B6ADE7F0BB731,20241211100036
"{""type"":""Point"",""coordinates"":[103.88702413972793,1.3206463677515854]}",1.3206463677515854,103.88702413972793,119151,33976.89913024,33655.94720746,MARKET & HAWKER CENTRE (BLK 117 ALJUNIED AVE 2),380117,Aljunied Ave 2,HUP Standard Upgrading,Aljunied Ave 2 Blk 117 (Blk 117 Aljunied Market and Food Centre),http://www.nea.gov.sg/images/default-source/Hawker-Centres-Division/resize_1262154437879.jpg,117,Existing,,,,"Blk 117, Aljunied Ave 2, Singapore 380117",15/9/1978,30/11/2005,79,35B13709AD4AB96A,20241211100036
"{""type"":""Point"",""coordinates"":[103.88605536814947,1.3590838409319475]}",1.3590838409319475,103.88605536814947,119152,33868.99289052,37906.1657976,KOVAN HOUGANG MARKET AND FOOD CENTRE,530209,Hougang Street 21,HUP Standard Upgrading,Hougang Street 21 Blk 209 (Kovan Hougang Market and Food Centre),http://www.nea.gov.sg/images/default-source/Hawker-Centres-Division/resize_1267849628846.jpg,209,Existing,,,,"Blk 209, Hougang Street 21, Singapore 530209",30/9/1983,24/01/2011,66,64D6E382A2C19C8F,20241211100036
"{""type"":""Point"",""coordinates"":[103.86672494953132,1.3630850108080914]}",1.3630850108080914,103.86672494953132,119153,31717.73505404,38348.55653348,SERANGOON GARDEN MARKET,555945,Serangoon Garden Way,HUP Rebuilding,Serangoon Garden Market,http://www.nea.gov.sg/images/default-source/Hawker-Centres-Division/resize_1262156095817.jpg,49A,Existing,,,,"49A, Serangoon Garden Way, Singapore 555945",1957,26/09/2002,46,B3C27FF922B3D283,20241211100036
"{""type"":""Point"",""coordinates"":[103.89013040811673,1.3540827392695727]}",1.3540827392695727,103.89013040811673,119154,34322.51068204,37353.17948138,HOUGANG 105 HAINANESE VILLAGE CENTRE,530105,Hougang Ave 1,HUP Rebuilding,Hougang Ave 1 Blk 105 (Hougang 105 Hainanese Village Centre),http://www.nea.gov.sg/images/default-source/Hawker-Centres-Division/resize_1259901634108.jpg,105,Existing,,,,"Blk 105, Hougang Ave 1, Singapore 530105",30/6/1982,11/11/2005,51,C012022CB793D7F5,20241211100036
"{""type"":""Point"",""coordinates"":[103.76425074802,1.303810731977092]}",1.303810731977092,103.76425074802,119155,20313.37964625,31794.39008487,MARKET & HAWKER CENTRE (BLK 726 CLEMENTI WEST STREET 2),120726,Clementi West Street 2,HUP Standard Upgrading,Clementi West Street 2 Blk 726,http://www.nea.gov.sg/images/default-source/Hawker-Centres-Division/resize_1262155262246.jpg,726,Existing,,,,"Blk 726, Clementi West Street 2, Singapore 120726",29/11/1980,26/11/2009,60,C7503EB1F103F04D,20241211100036
"{""type"":""Point"",""coordinates"":[103.89558794497685,1.3151075206359577]}",1.3151075206359577,103.89558794497685,119156,34929.98176012,33043.5118471,HAIG ROAD MARKET AND COOKED FOOD CENTRE,430013,Haig Road,HUP Reconfiguration,Haig Road Blk 13/14 (Haig Road Market and Cooked Food Centre),http://www.nea.gov.sg/images/default-source/Hawker-Centres-Division/resize_1267848993155.jpg,13,Existing,,,,"Blk 13/14, Haig Road, Singapore 430013/430014",30/7/1977,04/08/2010,72,AF063B02939A96AF,20241211100036
"{""type"":""Point"",""coordinates"":[103.85636164972811,1.3682477885076516]}",1.3682477885076516,103.85636164972811,119157,30564.41651504,38919.41672972,CHONG BOON MARKET AND FOOD CENTRE,561453,Ang Mo Kio Ave 10,HUP Standard Upgrading,Ang Mo Kio Ave 10 Blk 453A (Chong Boon Market and Food Centre),http://www.nea.gov.sg/images/default-source/Hawker-Centres-Division/resize_1259902043777.jpg,453A,Existing,,,,"Blk 453A, Ang Mo Kio Ave 10, Singapore 561453",11/4/1979,01/01/2002,39,B34C4EFDEDD201C2,20241211100036
"{""type"":""Point"",""coordinates"":[103.77080549454163,1.3143732849239704]}",1.3143732849239704,103.77080549454163,119158,21042.89259675,32962.32454893,CLEMENTI AVE 2 MARKET/COOKED FOOD CENTRE,120353,Clementi Ave 2,HUP Standard Upgrading,Clementi Ave 2 Blk 353 (Clementi Ave 2 Market/Cooked Food Centre),http://www.nea.gov.sg/images/default-source/Hawker-Centres-Division/resize_1267847852167.jpg,353,Existing,,,,"Blk 353, Clementi Ave 2, Singapore 120353",26/1/1978,25/10/2012,18,AB7F4FA5FDDD5D6B,20241211100036
"{""type"":""Point"",""coordinates"":[103.82901814509523,1.3723194930318616]}",1.3723194930318616,103.82901814509523,119159,27521.4142993,39369.63319225,SEMBAWANG HILLS FOOD CENTRE,574419,Upper Thomson Road,HUP Standard Upgrading,Sembawang Hills Food Centre (Jalan Leban Food Centre),http://www.nea.gov.sg/images/default-source/Hawker-Centres-Division/resize_1262155861677.jpg,590,Existing,,,,"590, Upper Thomson Road, Singapore 574419",1974,26/02/2003,36,072C4136EAC9B3D3,20241211100036
"{""type"":""Point"",""coordinates"":[103.91419083989796,1.332772792382345]}",1.332772792382345,103.91419083989796,119160,37000.24274458,34996.90817669,PASAR MAKAN @ RESERVOIR,470630,Bedok Reservoir Road,HUP Rebuilding,Bedok Reservoir Road Blk 630,http://www.nea.gov.sg/images/default-source/Hawker-Centres-Division/resize_1262155176127.jpg,630,Existing,,,,"Blk 630, Bedok Reservoir Road, Singapore 470630",30/6/1982,28/02/2006,36,9FB45909F75049E7,20241211100036
"{""type"":""Point"",""coordinates"":[103.8369645086122,1.3520255700711772]}",1.3520255700711772,103.8369645086122,119161,28405.75077116,37125.63452608,SHUNFU MART,570320,Shunfu Road,Not eligible for HUP,Shunfu Road Blk 320 (Shunfu Mart),http://www.nea.gov.sg/images/default-source/Hawker-Centres-Division/resize_1259901832200.jpg,320,Existing,,,,"Blk 320, Shunfu Road, Singapore 570320",25/5/2000,,31,4831ADD86699BD3F,20241211100036
"{""type"":""Point"",""coordinates"":[103.74274811937117,1.3208310935185843]}",1.3208310935185843,103.74274811937117,119162,17920.39927038,33676.49238838,TEBAN GARDENS MARKET AND FOOD CENTRE,601037,Teban Gardens Road,HUP Rebuilding,Teban Gardens Road Blk 37A (Teban Gardens Market and Food Centre),http://www.nea.gov.sg/images/default-source/Hawker-Centres-Division/resize_1262153022672.jpg,37A,Existing,,,,"Blk 37A, Teban Garden Road, Singapore 601037",1/11/1976,03/01/2008,28,E94B6EA742E53EFC,20241211100036
"{""type"":""Point"",""coordinates"":[103.93057030470072,1.324782370224249]}",1.324782370224249,103.93057030470072,119163,38823.14338418,34113.43285923,HAWKER CENTRE (BLK 208B NEW UPPER CHANGI ROAD),462208,New Upper Changi Road,New Replacement Centre,New Upper Changi Road Blk 208B,http://www.nea.gov.sg/images/default-source/Hawker-Centres-Division/bedok-interchange-hawker-centre.jpg,208B,Existing,,,,"Blk 208B, New Upper Changi Road, Singapore 462208",15/11/2014,,70,B69DBB3ACF48B2E9,20241211100036
"{""type"":""Point"",""coordinates"":[103.73170383842115,1.3454169827607771]}",1.3454169827607771,103.73170383842115,119164,16691.39049253,36395.12594053,YUHUA MARKET & HAWKER CENTRE,600347,Jurong East Ave 1,HUP Standard Upgrading,Jurong East Ave 1 Blk 347 (Yuhua Market and Hawker Centre),http://www.nea.gov.sg/images/default-source/Hawker-Centres-Division/resize_1275537901886.jpg,347,Existing,,,,"Blk 347, Jurong East Ave 1, Singapore 600347",17/10/1984,31/12/2002,56,B2C6CBF3E9E782D0,20241211100036
"{""type"":""Point"",""coordinates"":[103.88843734465244,1.3967931535173355]}",1.3967931535173355,103.88843734465244,119165,34133.98291329,42075.87775599,ANCHORVALE VILLAGE,540339,Anchorvale Road,New Centre,Anchorvale Village Hawker Centre,,339,Existing (new),27/04/2018,28/05/2018,hawker centre/supermarket/shops/flats,,14/12/2023,,36,BAB6C40F76BEA27C,20241211100036
"{""type"":""Point"",""coordinates"":[103.88293193010286,1.3753225375634037]}",1.3753225375634037,103.88293193010286,119166,33521.35329301,39701.75151904,CI YUAN COMMUNITY CLUB,538776,Hougang Avenue 9,New Centre,Ci Yuan Hawker Centre,http://www.nea.gov.sg/images/default-source/Hawker-Centres-Division/ci-yuan-hawker-centre.jpg,51,Existing (new),,,hawker centre/community club/family medicine clinic/senior care centre,"51 Hougang Avenue 9, Singapore 538776",2/7/2015,,40,64EFE9B0F122B27A,20241211100036
"{""type"":""Point"",""coordinates"":[103.82236354225992,1.2727612859808173]}",1.2727612859808173,103.82236354225992,119167,26780.78969957,28360.99976911,TELOK BLANGAH RISE MARKET,090036,Telok Blangah Rise,HUP Standard Upgrading,Telok Blangah Rise Blk 36 (Telok Blangah Rise Market),http://www.nea.gov.sg/images/default-source/Hawker-Centres-Division/resize_1267858653663.jpg,36,Existing,,,,"Blk 36, Telok Blangah Rise, Singapore 090036",29/10/1975,20/10/2010,24,1CE605407C250F16,20241211100036
"{""type"":""Point"",""coordinates"":[103.94040813551574,1.3531335979472119]}",1.3531335979472119,103.94040813551574,119168,39917.85977723,37248.41723766,OUR TAMPINES HUB,528523,Tampines Walk,New Centre,Hawker Centre @ Our Tampines Hub,http://www.nea.gov.sg/images/default-source/Hawker-Centres-Division/our-tampines-hub.jpg,1,Existing (new),07/05/2014,01/08/2013,hawker centre/ community club  offices/regional library/heritage centre/swimming complex/sports facilities/branch hawker centre/office/national arts council/hometeam ns clubhouse/family medical centre/senior care centre,"1 Tampines Walk, Singapore 528523",6/8/2016,,42,053EF9B31EADBB7A,20241211100036
"{""type"":""Point"",""coordinates"":[103.72158379761716,1.3347210666007077]}",1.3347210666007077,103.72158379761716,119169,15565.08528148,35212.47315484,TAMAN JURONG MARKET & FOOD CENTRE,618499,Yung Sheng Road,HUP Rebuilding,Taman Jurong Market and Food Centre,http://www.nea.gov.sg/images/default-source/Hawker-Centres-Division/resize_1262156147897.jpg,3,Existing,,,,"3, Yung Sheng Road, Singapore 618499",23/3/2005,23/03/2005,122,F11CFF4FE7B0A7EE,20241211100036
"{""type"":""Point"",""coordinates"":[103.85023293507001,1.3161312806032646]}",1.3161312806032646,103.85023293507001,119112,29882.40411023,33156.63386578,PEK KIO MARKET & FOOD CENTRE,211041,Cambridge Road,HUP Reconfiguration,Cambridge Road Blk 41A (Pek Kio Market and Food Centre),http://www.nea.gov.sg/images/default-source/Hawker-Centres-Division/resize_1265166819326.jpg,41A,Existing,,,,"Blk 41A, Cambridge Road, Singapore 211041",18/12/1981,07/03/2003,50,02548C1B803D2CED,20241211100036
"{""type"":""Point"",""coordinates"":[103.93547363751794,1.3205008376701182]}",1.3205008376701182,103.93547363751794,119113,39368.8552748,33640.02422007,MARKET & HAWKER CENTRE (BLK 16 BEDOK SOUTH ROAD),460016,Bedok South Road,HUP Standard Upgrading,Bedok South Road Blk 16,http://www.nea.gov.sg/images/default-source/Hawker-Centres-Division/resize_1267853021378.jpg,16,Existing,,,,"Blk 16, Bedok South Road, Singapore 460016",12/5/1975,20/09/2012,64,EFB4BCE43DAC8C1D,20241211100036
"{""type"":""Point"",""coordinates"":[103.82901736490587,1.4308539599603998]}",1.4308539599603998,103.82901736490587,119114,27521.3394163,45842.07838519,Chong Pang City,768677,Yishun Ring Road,New Replacement Centre,Chong Pang Hawker Centre & Market,,21,Under Construction,24/11/2023,22/12/2023,hawker centre/market/community club/swimming pool/gym,,2027,,58,325A4576CEA75848,20250405100117
"{""type"":""Point"",""coordinates"":[103.86302092286022,1.31921667863285]}",1.31921667863285,103.86302092286022,119115,31305.57937032,33497.81472958,BENDEMEER MARKET AND FOOD CENTRE,330029,Bendemeer Road,HUP Standard Upgrading,Bendemeer Road Blk 29 (Bendemeer Market and Food Centre),http://www.nea.gov.sg/images/default-source/Hawker-Centres-Division/resize_1262226446535.jpg,29,Existing,,,,"Blk 29, Bendemeer Road, Singapore 330029",17/3/1971,31/12/2004,88,41C11572F3060998,20241211100036
"{""type"":""Point"",""coordinates"":[103.85445795532793,1.3727720934379934]}",1.3727720934379934,103.85445795532793,119116,30352.55379559,39419.68935461,CHENG SAN MARKET AND COOKED FOOD CENTRE,560527,Ang Mo Kio Ave 10,HUP Reconfiguration,Ang Mo Kio Ave 10 Blk 527 (Cheng San Market and Cooked Food Centre),http://www.nea.gov.sg/images/default-source/Hawker-Centres-Division/resize_1265165592824.jpg,527,Existing,,,,"Blk 527, Ang Mo Kio Ave 10, Singapore 560527",24/12/1979,21/02/2004,50,CB2269FC071D3629,20241211100036
"{""type"":""Point"",""coordinates"":[103.79773798037208,1.3005440753273743]}",1.3005440753273743,103.79773798037208,119117,24040.19908613,31433.1024719,TANGLIN HALT MARKET,148813,Tanglin Halt Road,HUP Standard Upgrading,Tanglin Halt Market,http://www.nea.gov.sg/images/default-source/Hawker-Centres-Division/resize_1262156211794.jpg,48A,Existing,,,,"48A, Tanglin Halt Road, Singapore 148813",1964,01/10/2003,28,29B1F4B91E9DDCDD,20241211100036
"{""type"":""Point"",""coordinates"":[103.85688878360739,1.307344109232522]}",1.307344109232522,103.85688878360739,119118,30623.14481794,32184.99962546,BERSEH FOOD CENTRE,208877,Jalan Besar,HUP Standard Upgrading,Berseh Food Centre,http://www.nea.gov.sg/images/default-source/Hawker-Centres-Division/resize_1265176120532.jpg,166,Existing,,,,"166, Jalan Besar, Singapore 208877",1975,05/03/2004,66,229898E92C5D1166,20241211100036
"{""type"":""Point"",""coordinates"":[103.93876843904202,1.3320048242420148]}",1.3320048242420148,103.93876843904202,119119,39735.48061643,34912.09347255,FENGSHAN CENTRE,460085,Bedok North Street 4,HUP Standard Upgrading,Bedok North Street 4 Blk 85 (85 Fengshan Centre),http://www.nea.gov.sg/images/default-source/Hawker-Centres-Division/resize_1267853253145.jpg,85,Existing,,,,"Blk 85, Bedok North Street 4, Singapore 460085",30/6/1977,20/12/2012,72,C18185348EEDF740,20241211100036
"{""type"":""Point"",""coordinates"":[103.80072071145584,1.4397495181298368]}",1.4397495181298368,103.80072071145584,119120,24372.35981837,46825.72998362,KAMPUNG ADMIRALTY,730676,Woodlands Drive 71,New Centre,Kampung Admiralty Hawker Centre,http://www.nea.gov.sg/images/default-source/Hawker-Centres-Division/kampung-admiralty-hawker-centre.jpg,676,Existing (new),17/10/2014,01/04/2014,studio apartments/supermarket/shops/specialist centre/senior care centre/child care centre/senior activity centre,"Blk 676, Woodlands Drive 71, Singapore 730676",8/5/2017,,43,AB1CA2CEA2B94E77,20241211100036
"{""type"":""Point"",""coordinates"":[103.85439575904685,1.3402610465757185]}",1.3402610465757185,103.85439575904685,119121,30345.6633799,35824.78335709,MARKET & HAWKER CENTRE (BLK 210 TOA PAYOH LORONG 8),310210,Lorong 8 Toa Payoh,HUP Standard Upgrading,Toa Payoh Lorong 8 Blk 210,http://www.nea.gov.sg/images/default-source/Hawker-Centres-Division/resize_1267876959422.jpg,210,Existing,,,,"Blk 210, Lorong 8 Toa Payoh, Singapore 310210",27/8/1974,30/09/2011,80,83ECAD89A5501F1E,20241211100036
"{""type"":""Point"",""coordinates"":[103.82601329649792,1.2800048011364626]}",1.2800048011364626,103.82601329649792,119122,27186.98116791,29161.9488236,MARKET & HAWKER CENTRE (BLK 112 JALAN BUKIT MERAH),160112,Jalan Bukit Merah,HUP Standard Upgrading,Jalan Bukit Merah Blk 112 (Blk 112 Jalan Bukit Merah Market and Food Centre),http://www.nea.gov.sg/images/default-source/Hawker-Centres-Division/resize_1267874698833.jpg,112,Existing,,,,"Blk 112, Jalan Bukit Merah, Singapore 160112",1/1/1969,28/11/2013,22,4FA9BB03234F998D,20241211100036
"{""type"":""Point"",""coordinates"":[103.80036727142618,1.3069001323584224]}",1.3069001323584224,103.80036727142618,119123,24332.82477688,32135.91866726,COMMONWEALTH CRESCENT MARKET,149644,Commonwealth Crescent,HUP Rebuilding,Commonwealth Crescent Market,http://www.nea.gov.sg/images/default-source/Hawker-Centres-Division/resize_1265167388780.jpg,31,Existing,,,,"31, Commonwealth Crescent, Singapore 149644",1965,18/08/2004,39,40D5D8D44A44BFA9,20241211100036
"{""type"":""Point"",""coordinates"":[103.76451719252249,1.3133196935787612]}",1.3133196935787612,103.76451719252249,119108,20343.06133913,32845.84205763,MARKET & HAWKER CENTRE (BLK 448 CLEMENTI AVENUE 3),120448,Clementi Ave 3,HUP Standard Upgrading,Clementi Ave 3 Blk 448,http://www.nea.gov.sg/images/default-source/Hawker-Centres-Division/resize_1267848308255.jpg,448,Existing,,,,"Blk 448, Clementi Ave 3, Singapore 120448",12/1/1980,29/10/2010,51,7BC059A9A43ADEEF,20241211100036
"{""type"":""Point"",""coordinates"":[103.89822788513564,1.316736349282815]}",1.316736349282815,103.89822788513564,119109,35223.77721764,33223.62687191,SRI GEYLANG SERAI,402001,Geylang Serai,HUP Rebuilding,Geylang Serai Market,http://www.nea.gov.sg/images/default-source/Hawker-Centres-Division/resize_1262155542468.jpg,1,Existing,,,,"1, Geylang Serai, Singapore 402001",3/7/2009,03/07/2009,63,48EC137ED2F24011,20241211100036
"{""type"":""Point"",""coordinates"":[103.8081312742836,1.2868829730421196]}",1.2868829730421196,103.8081312742836,119110,25196.86438637,29922.51415261,ABC BRICKWORKS MARKET & FOOD CENTRE,150006,Jalan Bukit Merah,HUP Reconfiguration,Jalan Bukit Merah Blk 6 (ABC Brickworks Market/Food Centre),http://www.nea.gov.sg/images/default-source/Hawker-Centres-Division/resize_1267760203.jpg,6,Existing,,,,"Blk 6, Jalan Bukit Merah, Singapore 150006",11/10/1974,11/08/2006,96,46D96BF7A763169D,20241211100036
"{""type"":""Point"",""coordinates"":[103.91573703509026,1.3057297360038187]}",1.3057297360038187,103.91573703509026,119111,37172.41732708,32006.62849053,MARKET & HAWKER CENTRE (BLK 50A MARINE TERRACE),441050,Marine Terrace,HUP Standard Upgrading,Marine Terrace Blk 50A (50A Marine Terrace),http://www.nea.gov.sg/images/default-source/Hawker-Centres-Division/resize_1262153165514.jpg,50A,Existing,,,,"Blk 50A, Marine Terrace, Singapore 441050",3/3/1975,22/12/2008,24,8EC8FEF7D7309ACF,20241211100036
"{""type"":""Point"",""coordinates"":[103.83218154655142,1.2847855982150984]}",1.2847855982150984,103.83218154655142,119041,27873.45773709,29690.58348755,TIONG BAHRU MARKET,168898,Seng Poh Road,HUP Rebuilding,Tiong Bahru Market,http://www.nea.gov.sg/images/default-source/Hawker-Centres-Division/resize_1262156378375.jpg,30,Existing,,,,"30, Seng Poh Road, Singapore 168898",,10/02/2006,83,2AC5BFAA02772895,20241211100036
"{""type"":""Point"",""coordinates"":[103.85528829790343,1.3626541076693122]}",1.3626541076693122,103.85528829790343,119042,30444.97096974,38300.89478051,MARKET & HAWKER CENTRE (BLK 409 ANG MO KIO AVE 10),560409,Ang Mo Kio Ave 10,HUP Standard Upgrading,Ang Mo Kio Ave 10 Blk 409 (Teck Ghee Square),http://www.nea.gov.sg/images/default-source/Hawker-Centres-Division/resize_1275538704472.jpg,409,Existing,,,,"Blk 409, Ang Mo Kio Ave 10, Singapore 560409",31/7/1979,28/11/2011,40,2F07B3246BDB3538,20241211100036
"{""type"":""Point"",""coordinates"":[103.80563670047233,1.3162405292821697]}",1.3162405292821697,103.80563670047233,119043,24919.27489162,33168.72483562,EMPRESS ROAD MARKET AND FOOD CENTRE,260007,Empress Road,HUP Standard Upgrading,Empress Road Blk 7 (Empress Road Market and Food Centre),http://www.nea.gov.sg/images/default-source/Hawker-Centres-Division/resize_1262152572393.jpg,7,Existing,,,,"Blk 7, Empress Road, Singapore 260007",26/3/1976,02/12/2008,40,31EFEE5D2DE91245,20241211100036
"{""type"":""Point"",""coordinates"":[103.863877615715,1.303141753061011]}",1.303141753061011,103.863877615715,119044,31400.94255759,31720.33301563,GOLDEN MILE FOOD CENTRE,199583,Beach Road,HUP Standard Upgrading,Golden Mile Food Centre,http://www.nea.gov.sg/images/default-source/Hawker-Centres-Division/resize_1262155571228.jpg,505,Existing,,,,"505, Beach Road, Singapore 199583",1975,04/07/2002,112,34F599BC64ED5790,20241211100036
"{""type"":""Point"",""coordinates"":[103.74592160246587,1.3971847191918951]}",1.3971847191918951,103.74592160246587,119045,18273.88246536,42119.2841634,Heart of Yew Tee,680628,Yew Tee Close,New Centre,Yew Tee Hawker Centre,,628,Under Construction,21/12/2022,04/01/2023,hawker centre/flats/community club/polyclinic/kidney dialysis centre,,2027,,40,940576F260F3C469,20241211100036
"{""type"":""Point"",""coordinates"":[103.87000501449864,1.321463110363858]}",1.321463110363858,103.87000501449864,119046,32082.83670538,33746.22401141,GEYLANG BAHRU MARKET AND FOOD CENTRE,330069,Geylang Bahru,Opted out of HUP,Geylang Bahru Blk 69 (Blk 69 Geylang Bahru Market and Food Centre),http://www.nea.gov.sg/images/default-source/Hawker-Centres-Division/blk-69-geylang-bahru.jpg,69,Existing,,,,"Blk 69, Geylang Bahru, Singapore 330069",16/1/1974,,78,AF0F7EE0DF63F56B,20241211100036
"{""type"":""Point"",""coordinates"":[103.7184436782123,1.3496572915944292]}",1.3496572915944292,103.7184436782123,119047,15215.69985694,36864.06396823,MARKET & HAWKER CENTRE (BLK 505 JURONG WEST STREET 52),640505,Jurong West Street 52,HUP Standard Upgrading,Jurong West Street 52 Blk 505,http://www.nea.gov.sg/images/default-source/Hawker-Centres-Division/resize_1262155040710.jpg,505,Existing,,,,"Blk 505, Jurong West Street 52, Singapore 640505",16/1/1985,02/01/2009,60,CC4C0D3F8B8D8B27,20241211100036
"{""type"":""Point"",""coordinates"":[103.80290387146337,1.2932362444197107]}",1.2932362444197107,103.80290387146337,119048,24615.10674742,30625.03260182,BLK 139 MEI CHIN ROAD,140159,Mei Chin Road,HUP Reconfiguration,Mei Chin Road Blk 159 (Mei Chin Road Market),http://www.nea.gov.sg/images/default-source/Hawker-Centres-Division/resize_1262154581891.jpg,159,Existing,,,,"Blk 159, Mei Chin Road, Singapore 140159",12/10/1970,08/05/2009,47,255585503ECD44B1,20241211100036
"{""type"":""Point"",""coordinates"":[103.8400222235967,1.3671965379048148]}",1.3671965379048148,103.8400222235967,119049,28746.03533943,38803.16345786,KEBUN BARU MALL,568226,Ang Mo Kio Street 22,HUP Reconfiguration,Ang Mo Kio Street 22 Blk 226H (Kebun Baru Food Centre),http://www.nea.gov.sg/images/default-source/Hawker-Centres-Division/resize_1259901689557.jpg,226H,Existing,,,,"Blk 226H, Ang Mo Kio Street 22, Singapore 568226",30/9/1976,13/12/2003,29,A658317822D9C4C7,20241211100036
"{""type"":""Point"",""coordinates"":[103.9018254078894,1.3094178879625105]}",1.3094178879625105,103.9018254078894,119050,35624.16903762,32414.39916066,DUNMAN FOOD CENTRE,424768,Onan Road,HUP Standard Upgrading,Dunman Food Centre,http://www.nea.gov.sg/images/default-source/Hawker-Centres-Division/resize_1262155459807.jpg,271,Existing,,,,"271, Onan Road, Singapore 424768",1974,03/12/2002,30,5B9777943F201078,20241211100036
"{""type"":""Point"",""coordinates"":[103.78823030670418,1.3109966321422568]}",1.3109966321422568,103.78823030670418,119051,22982.10099058,32588.90970507,MARKET & HAWKER CENTRE (BLK 20 GHIM MOH ROAD),270020,Ghim Moh Road,Opted out of HUP,Ghim Moh Road Blk 20,http://www.nea.gov.sg/images/default-source/Hawker-Centres-Division/resize_1267848628803.jpg,20,Existing,,,,"Blk 20, Ghim Moh Road, Singapore 270020",24/1/1977,,72,8D96D88D7FC38829,20241211100036
"{""type"":""Point"",""coordinates"":[103.83917606128082,1.3745277374668692]}",1.3745277374668692,103.83917606128082,119052,28651.86555822,39613.81004138,MAYFLOWER MARKET AND FOOD CENTRE,560160,Ang Mo Kio Ave 4,HUP Standard Upgrading,Ang Mo Kio Ave 4 Blk 160/162 (Mayflower Market),http://www.nea.gov.sg/images/default-source/Hawker-Centres-Division/resize_1265165416622.jpg,160,Existing,,,,"Blk 160/162, Ang Mo Kio Ave 4, Singapore 560160/560162",30/6/1981,31/12/2008,40,19015073199C1B61,20241211100036
"{""type"":""Point"",""coordinates"":[103.7591280191558,1.3119069571999333]}",1.3119069571999333,103.7591280191558,119053,19743.29267593,32689.64600427,AYER RAJAH MARKET,120502,West Coast Drive,Not eligible for HUP,West Coast Drive Blk 502 (Ayer Rajah Market),http://www.nea.gov.sg/images/default-source/Hawker-Centres-Division/resize_1265168297394.jpg,502,Existing,,,,"Blk 502, West Coast Drive, Singapore 120502",19/1/1995,,0,957AF43530300ADC,20241211100036
"{""type"":""Point"",""coordinates"":[103.7724915268977,1.3775974234205033]}",1.3775974234205033,103.7724915268977,119054,21230.70628322,39953.3258634,BUKIT PANJANG HAWKER CENTRE,679947,Bukit Panjang Ring Road,New Centre,Bukit Panjang Hawker Centre,http://www.nea.gov.sg/images/default-source/Hawker-Centres-Division/bukit-panjang-hawker-centre.jpg,2,Existing (new),,,,"2 Bukit Panjang Ring Road, Singapore 679947",31/7/2015,,28,8DDF8033FB7C193A,20241211100036
"{""type"":""Point"",""coordinates"":[103.8273538919747,1.2888308915646167]}",1.2888308915646167,103.8273538919747,119055,27336.18092817,30137.89189301,BEO CRESCENT MARKET,169982,Beo Crescent,HUP Standard Upgrading,Beo Crescent Market,http://www.nea.gov.sg/images/default-source/Hawker-Centres-Division/resize_1267807628554.jpg,38A,Existing,,,,"38A, Beo Crescent, Singapore 169982",1965,18/01/2010,32,8777A28ECACA697B,20241211100036
"{""type"":""Point"",""coordinates"":[103.8296234138997,1.2879705166198658]}",1.2879705166198658,103.8296234138997,119056,27588.75926154,30042.75559454,HAVELOCK ROAD COOKED FOOD CENTRE,161022,Havelock Road,HUP Standard Upgrading,Havelock Road Blk 22A/B (Havelock Road Cooked Food Centre),http://www.nea.gov.sg/images/default-source/Hawker-Centres-Division/resize_1262152823428.jpg,22A,Existing,,,,"Blk 22A/B, Havelock Road, Singapore 161022/162022",16/11/1969,27/04/2007,30,28023C1F2CCF114A,20241211100036
"{""type"":""Point"",""coordinates"":[103.85700370906183,1.335382613078359]}",1.335382613078359,103.85700370906183,119057,30635.9054064,35285.35382863,KIM KEAT PALM MARKET AND FOOD CENTRE,310022,Lorong 7 Toa Payoh,HUP Reconfiguration,Toa Payoh Lorong 7 Blk 22 (Kim Keat Palm Market and Food Centre),http://www.nea.gov.sg/images/default-source/Hawker-Centres-Division/resize_1265168256123.jpg,22,Existing,,,,"Blk 22, Lorong 7 Toa Payoh, Singapore 310022",2/3/1970,16/07/2004,61,585B80E3515B5A8D,20241211100036
"{""type"":""Point"",""coordinates"":[103.94462942285355,1.3453734735523084]}",1.3453734735523084,103.94462942285355,119058,40387.68129711,36390.36182043,TAMPINES ROUND MARKET AND FOOD CENTRE,521137,Tampines Street 11,HUP Reconfiguration,Tampines Street 11 Blk 137 (Tampines Round Market and Food Centre),http://www.nea.gov.sg/images/default-source/Hawker-Centres-Division/resize_1262154543785.jpg,137,Existing,,,,"Blk 137, Tampines Street 11, Singapore 521137",30/11/1982,08/01/2006,45,75A738835FEB641F,20241211100036
"{""type"":""Point"",""coordinates"":[103.83915227449918,1.366800962194856]}",1.366800962194856,103.83915227449918,119059,28649.22046939,38759.42249842,KEBUN BARU MALL,564226,Ang Mo Kio Ave 1,HUP Standard Upgrading,Ang Mo Kio Ave 1 Blk 226D (Kebun Baru Market and Food Centre),http://www.nea.gov.sg/images/default-source/Hawker-Centres-Division/resize_1262154827180.jpg,226D,Existing,,,,"Blk 226D, Ang Mo Kio Ave 1, Singapore 564226",13/10/1976,20/01/2010,10,6F098F4A2970AA13,20241211100036
"{""type"":""Point"",""coordinates"":[103.84323851850745,1.2822749608841026]}",1.2822749608841026,103.84323851850745,119060,29104.00785148,29412.97226038,CHINATOWN COMPLEX,050335,Smith Street,HUP Reconfiguration,Smith Street Blk 335 (Chinatown Complex Market),http://www.nea.gov.sg/images/default-source/Hawker-Centres-Division/resize_1265168178798.jpg,335,Existing,,,,"Blk 335, Smith Street, Singapore 050335",31/5/1983,30/04/2008,226,3F95409CDBC98F04,20241211100036
"{""type"":""Point"",""coordinates"":[103.89272100789816,1.3829816322433666]}",1.3829816322433666,103.89272100789816,119061,34610.73598305,40548.6805768,SENGKANG GRAND MALL,544692,Compassvale Bow,New Centre,Buangkok Hawker Centre,,70,Existing (new),18/09/2019,29/10/2019,hawker centre/community club/bus interchange/private residential and commercial units,,15/2/2023,,38,02E55411403480BF,20241211100036
"{""type"":""Point"",""coordinates"":[103.87930985514092,1.3170350238501258]}",1.3170350238501258,103.87930985514092,119062,33118.38245921,33256.6059892,SIMS VISTA MARKET AND FOOD CENTRE,380049,Sims Place,HUP Reconfiguration,Sims Place Blk 49 (Sims Vista Market and Food Centre),http://www.nea.gov.sg/images/default-source/Hawker-Centres-Division/resize_1262153128123.jpg,49,Existing,,,,"Blk 49, Sims Place, Singapore 380049",20/9/1976,15/11/2006,66,92CF76AF56112014,20241211100036
"{""type"":""Point"",""coordinates"":[103.93321797031916,1.3270627418405785]}",1.3270627418405785,103.93321797031916,119063,39117.7922475,34365.59682391,MARKET & HAWKER CENTRE (BLK 216 BEDOK NORTH STREET 1),460216,Bedok North Street 1,HUP Standard Upgrading,Bedok North Street 1 Blk 216,http://www.nea.gov.sg/images/default-source/Hawker-Centres-Division/resize_1262154705733.jpg,216,Existing,,,,"Blk 216, Bedok North Street 1, Singapore 460216",21/8/1979,15/12/2008,82,36A81229075551DE,20241211100036
"{""type"":""Point"",""coordinates"":[103.83956972873328,1.3119155203922301]}",1.3119155203922301,103.83956972873328,119064,28695.69359864,32690.47129112,NEWTON FOOD CENTRE,229495,Clemenceau Ave North,HUP Standard Upgrading,Newton Food Centre,http://www.nea.gov.sg/images/default-source/Hawker-Centres-Division/resize_1262155777485.jpg,500,Existing,,,,"500, Clemenceau Ave North, Singapore 229495",1971,12/06/2006,83,7AD9A56502C39FEE,20241211100036
"{""type"":""Point"",""coordinates"":[103.75975140548066,1.3118030896284905]}",1.3118030896284905,103.75975140548066,119065,19812.66940685,32678.15875963,AYER RAJAH FOOD CENTRE,120503,West Coast Drive,HUP Standard Upgrading,West Coast Drive Blk 503 (Ayer Rajah Food Centre),http://www.nea.gov.sg/images/default-source/Hawker-Centres-Division/resize_1265168322420.jpg,503,Existing,,,,"Blk 503, West Coast Drive, Singapore 120503",26/3/1979,15/12/2002,80,DBF86F8C83CADDB4,20241211100036
"{""type"":""Point"",""coordinates"":[103.92462131526736,1.3320672771423439]}",1.3320672771423439,103.92462131526736,119066,38161.05006705,34918.93639777,MARKET & HAWKER CENTRE (BLK 538 BEDOK NORTH STREET 3),460538,Bedok North Street 3,HUP Standard Upgrading,Bedok North Street 3 Blk 538,http://www.nea.gov.sg/images/default-source/Hawker-Centres-Division/resize_1262227194623.jpg,538,Existing,,,,"Blk 538, Bedok North Street 3, Singapore 460538",30/4/1979,03/12/2010,40,CECFC57BE31A166A,20241211100036
"{""type"":""Point"",""coordinates"":[103.95157134251521,1.373472520364779]}",1.373472520364779,103.95157134251521,119067,41160.09009466,39497.45413079,PASIR RIS CENTRAL HAWKER CENTRE,519641,Pasir Ris Central,New Centre,Pasir Ris Central Hawker Centre,http://www.nea.gov.sg/images/default-source/Hawker-Centres-Division/pasir-ris-central-hawker-centre.jpg,110,Existing (new),15/07/2015,29/07/2015,,"Blk 110, Pasir Ris Central, Singapore 519641",16/10/2017,,42,AA6AC3A05C7D143A,20241211100036
"{""type"":""Point"",""coordinates"":[103.8406280871954,1.3809876170167132]}",1.3809876170167132,103.8406280871954,119068,28813.45603217,40328.11105996,ANG MO KIO 628 MARKET,560628,Ang Mo Kio Ave 4,HUP Rebuilding,Ang Mo Kio Ave 4 Blk 628 (Ang Mo Kio 628 Market),http://www.nea.gov.sg/images/default-source/Hawker-Centres-Division/blk-628-ang-mo-kio-ave-4.jpg,628,Existing,,,,"Blk 628, Ang Mo Kio Ave 4, Singapore 560628",31/12/1979,16/12/2009,52,B7FF62A360BFFC74,20241211100036
"{""type"":""Point"",""coordinates"":[103.81416592401631,1.3241598522323794]}",1.3241598522323794,103.81416592401631,119069,25868.50171331,34044.39404008,ADAM FOOD CENTRE,289876,Adam Road,HUP Standard Upgrading,Adam Road Food Centre,http://www.nea.gov.sg/images/default-source/Hawker-Centres-Division/resize_1267437914368.jpg,2,Existing,,,,"2, Adam Road, Singapore 289876",1974,30/04/2002,32,7078FE64513F3197,20241211100036
"{""type"":""Point"",""coordinates"":[103.88401769942449,1.307343983274556]}",1.307343983274556,103.88401769942449,119070,33642.34168825,32185.03034746,KALLANG ESTATE FRESH MARKET AND FOOD CENTRE,397972,Old Airport Road,HUP Standard Upgrading,Kallang Estate Fresh Market and Food Centre,http://www.nea.gov.sg/images/default-source/Hawker-Centres-Division/resize_1262155698415.jpg,17,Existing,,,,"17, Old Airport Road, Singapore 397972",1959,31/10/2003,16,4E98B29AFCE852BB,20241211100036
"{""type"":""Point"",""coordinates"":[103.82853767194467,1.4314477516178066]}",1.4314477516178066,103.82853767194467,119071,27467.95689334,45907.736997,CHONG PANG MARKET & FOOD CENTRE,760104,Yishun Ring Road,HUP Standard Upgrading,Yishun Ring Road Blk 104/105 (Chong Pang Market and Food Centre),http://www.nea.gov.sg/images/default-source/Hawker-Centres-Division/resize_1267438077554.jpg,104,Existing,,,,"Blk 104/105, Yishun Ring Road, Singapore 760104/760105",31/3/1984,04/08/2003,56,8D2E3F03B96360B1,20241211100036
"{""type"":""Point"",""coordinates"":[103.73773841154456,1.3434881852952274]}",1.3434881852952274,103.73773841154456,119072,17362.9648318,36181.82188997,YUHUA VILLAGE MARKET AND FOOD CENTRE,600254,Jurong East Street 24,HUP Reconfiguration,Jurong East Street 24 Blk 254 (Yuhua Village Market and Food Centre),http://www.nea.gov.sg/images/default-source/Hawker-Centres-Division/resize_1265167615307.jpg,254,Existing,,,,"Blk 254, Jurong East Street 24, Singapore 600254",30/4/1983,05/07/2006,60,54A5C40EB9020919,20241211100036
"{""type"":""Point"",""coordinates"":[103.84257877119593,1.284858608203884]}",1.284858608203884,103.84257877119593,119073,29030.58238425,29698.65838024,,050032,New Market Road,HUP Standard Upgrading,New Market Road Blk 32 (People's Park Food Centre),http://www.nea.gov.sg/images/default-source/Hawker-Centres-Division/resize_1265168123284.jpg,32,Existing,,,,"Blk 32, New Market Road, Singapore 050032",1965,27/12/2005,87,B6D0169FDF886431,20241211100036
"{""type"":""Point"",""coordinates"":[103.80761812956985,1.2733559939051546]}",1.2733559939051546,103.80761812956985,119074,25139.74074061,28426.77115942,TELOK BLANGAH FOOD CENTRE,100079,Telok Blangah Drive,HUP Standard Upgrading,Telok Blangah Drive Blk 79 (Telok Blangah Food Centre),http://www.nea.gov.sg/images/default-source/Hawker-Centres-Division/resize_1262153497855.jpg,79,Existing,,,,"Blk 79, Telok Blangah Drive, Singapore 100079",30/5/1977,20/08/2005,40,BFCAE465AE52EB59,20241211100036
"{""type"":""Point"",""coordinates"":[103.7798818923625,1.4335431810333386]}",1.4335431810333386,103.7798818923625,119075,22053.30375636,46139.50793791,MARSILING MALL HAWKER CENTRE,738623,Woodlands Street 12,New Replacement Centre,Marsiling Mall Hawker Centre,http://www.nea.gov.sg/images/default-source/Hawker-Centres-Division/mmhc.jpg,4,Existing (replacement),04/09/2015,01/01/2016,hawker centre/supermarket/shops,"Blk 4,Woodlands St 12,Singapore738623",8/11/2017,,70,4095364BB8B02B03,20241211100036
"{""type"":""Point"",""coordinates"":[103.7927737690562,1.3081177997946856]}",1.3081177997946856,103.7927737690562,119076,23487.74043167,32270.57454028,HOLLAND DRIVE MARKET AND FOOD CENTRE,270044,Holland Drive,HUP Standard Upgrading,Holland Drive Blk 44 (Holland Drive Market and Food Centre),http://www.nea.gov.sg/images/default-source/Hawker-Centres-Division/resize_1267849222112.jpg,44,Existing,,,,"Blk 44, Holland Drive, Singapore 270044",31/1/1999,31/03/2014,45,655AD80577EAF8E9,20241211100036
"{""type"":""Point"",""coordinates"":[103.86390933661885,1.305634336272546]}",1.305634336272546,103.86390933661885,119077,31404.46950412,31995.95012749,NORTH BRIDGE ROAD MARKET,198783,North Bridge Road,HUP Reconfiguration,North Bridge Road Market,http://www.nea.gov.sg/images/default-source/Hawker-Centres-Division/resize_1262155297184.jpg,861,Existing,,,,"861, North Bridge Road, Singapore 198783",1973,17/10/2005,37,17D331D2F4C1FDC3,20241211100036
"{""type"":""Point"",""coordinates"":[103.84951344899093,1.3384746963913283]}",1.3384746963913283,103.84951344899093,119078,29802.3160847,35627.25376892,MARKET & HAWKER CENTRE (BLK 93 TOA PAYOH LORONG 4),310093,Lorong 4 Toa Payoh,HUP Standard Upgrading,Toa Payoh Lorong 4 Blk 93,http://www.nea.gov.sg/images/default-source/Hawker-Centres-Division/resize_1262154305312.jpg,93,Existing,,,,"Blk 93, Lorong 4 Toa Payoh, Singapore 310093",19/7/1967,20/07/2009,28,F38D477343A74DFF,20241211100036
"{""type"":""Point"",""coordinates"":[103.79487641992755,1.3110729744341822]}",1.3110729744341822,103.79487641992755,119079,23721.75087043,32597.33885424,HOLLAND VILLAGE MARKET & FOOD CENTRE,277700,Lorong Mambong,HUP Rebuilding,Holland Village Market and Food Centre,http://www.nea.gov.sg/images/default-source/Hawker-Centres-Division/resize_1267415509849.jpg,1,Existing,,,,"1, Lorong Mambong, Singapore 277700",Pre-War,12/12/2005,21,B3C2C39A6F10A790,20241211100036
"{""type"":""Point"",""coordinates"":[103.98824524769368,1.3891516483342807]}",1.3891516483342807,103.98824524769368,119080,45241.34420358,41231.41202782,MARKET & HAWKER CENTRE (BLKS 2 & 3 CHANGI VILLAGE ROAD),500002,Changi Village Road,HUP Standard Upgrading,Changi Village Blk 2 and 3,http://www.nea.gov.sg/images/default-source/Hawker-Centres-Division/resize_1267846802175.jpg,2,Existing,,,,"Blk 2/3, Changi Village Road, Singapore 500002/500003",12/11/1975,28/12/2012,87,F978C139FA0EB4D6,20241211100036
"{""type"":""Point"",""coordinates"":[103.87162041651013,1.3150284150824152]}",1.3150284150824152,103.87162041651013,119081,32262.62592561,33034.71100708,UPPER BOON KENG MARKET AND FOOD CENTRE,380017,Upper Boon Keng Road,HUP Standard Upgrading,Upper Boon Keng Road Blk 17 (Blk 17 Upper Boon Keng Market and Food Centre),http://www.nea.gov.sg/images/default-source/Hawker-Centres-Division/resize_1262226056435.jpg,17,Existing,,,,"Blk 17, Upper Boon Keng Road, Singapore 380017",28/2/1974,13/01/2009,84,3FFC3E8E57DFDDEB,20241211100036
"{""type"":""Point"",""coordinates"":[103.93058152248236,1.3332199326945382]}",1.3332199326945382,103.93058152248236,119082,38824.35513264,35046.41673069,KAKI BUKIT 511 MARKET AND FOOD CENTRE,460511,Bedok North Street 3,HUP Standard Upgrading,Bedok North Street 3 Blk 511 (Kaki Bukit 511 Market and Food Centre),http://www.nea.gov.sg/images/default-source/Hawker-Centres-Division/resize_1265166047112.jpg,511,Existing,,,,"Blk 511, Bedok North Street 3, Singapore 460511",16/3/1979,01/07/2004,42,742BC3FA328CD09B,20241211100036
"{""type"":""Point"",""coordinates"":[103.80790033728778,1.2738907675844822]}",1.2738907675844822,103.80790033728778,119083,25171.14882847,28485.90341884,TELOK BLANGAH MARKET,100082,Telok Blangah Drive,HUP Standard Upgrading,Telok Blangah Drive Blk 82 (Telok Blangah Market),http://www.nea.gov.sg/images/default-source/Hawker-Centres-Division/resize_1262153608307.jpg,82,Existing,,,,"Blk 82, Telok Blangah Drive, Singapore 100082",30/5/1977,29/11/2011,0,78ABB4E3525863EC,20241211100036
"{""type"":""Point"",""coordinates"":[103.84651030979788,1.3721725853422009]}",1.3721725853422009,103.84651030979788,119084,29468.07854502,39353.39251211,MARKET & HAWKER CENTRE (BLK 724 ANG MO KIO AVE 6),560724,Ang Mo Kio Ave 6,HUP Reconfiguration,Ang Mo Kio Ave 6 Blk 724 (Blk 724 Ang Mo Kio Market),http://www.nea.gov.sg/images/default-source/Hawker-Centres-Division/resize_1262155216756.jpg,724,Existing,,,,"Blk 724, Ang Mo Kio Ave 6, Singapore 560724",31/1/1980,02/01/2008,45,F598B6413680D0AC,20241211100036
"{""type"":""Point"",""coordinates"":[103.86652701707575,1.3642325250966993]}",1.3642325250966993,103.86652701707575,119085,31695.70583388,38475.44246373,CHOMP CHOMP FOOD CENTRE,557269,Kensington Park Road,HUP Standard Upgrading,Chomp Chomp Food Centre,http://www.nea.gov.sg/images/default-source/Hawker-Centres-Division/resize_1262155330191.jpg,20,Existing,,,,"20, Kensington Park Road, Singapore 557269",1972,31/03/2004,36,BA4D74F6AD9DF16C,20241211100036
"{""type"":""Point"",""coordinates"":[103.8044926373283,1.2863059431906378]}",1.2863059431906378,103.8044926373283,119086,24791.91393563,29858.71345018,ALEXANDRA VILLAGE FOOD CENTRE,150120,Bukit Merah Lane 1,HUP Standard Upgrading,Bukit Merah Lane 1 Blk 120 (Alexandra Village Food Centre),http://www.nea.gov.sg/images/default-source/Hawker-Centres-Division/resize_1267852344747.jpg,120,Existing,,,,"Blk 120, Bukit Merah Lane, Singapore 150120",14/9/1978,15/11/2010,88,EC711DF5CE073561,20241211100036
"{""type"":""Point"",""coordinates"":[103.8505855697116,1.3061866381546818]}",1.3061866381546818,103.8505855697116,119087,29924.37375699,32056.02175378,ZHUJIAO CENTRE (TEKKA MARKET),210665,Buffalo Road,HUP Standard Upgrading,Buffalo Road Blk 665 (Tekka Centre/Zhu Jiao Market),http://www.nea.gov.sg/images/default-source/Hawker-Centres-Division/resize_1262156313186.jpg,665,Existing,,,,"Blk 665, Buffalo Road, Singapore 210665",31/10/1980,30/06/2009,119,3F3845E9C01B519C,20250405100117
"{""type"":""Point"",""coordinates"":[103.84473272633905,1.3381035143692974]}",1.3381035143692974,103.84473272633905,119088,29270.27294311,35586.20741673,TOA PAYOH WEST MARKET AND FOOD COURT,310127,Lorong 1 Toa Payoh,HUP Reconfiguration,Toa Payoh Lorong 1 Blk 127 (Toa Payoh West Market and Food Court),http://www.nea.gov.sg/images/default-source/Hawker-Centres-Division/resize_1262154499803.jpg,127,Existing,,,,"Blk 127, Lorong 1 Toa Payoh, Singapore 310127",11/3/1969,11/12/2003,40,61E3CC396737AF5E,20241211100036
"{""type"":""Point"",""coordinates"":[103.88505228554148,1.3265970669755378]}",1.3265970669755378,103.88505228554148,119089,33757.4374216,34313.94063539,HAWKER CENTRE (BLKS 79/79A CIRCUIT ROAD),370079,Circuit Road,HUP Standard Upgrading,Circuit Road Blk 79/79A,http://www.nea.gov.sg/images/default-source/Hawker-Centres-Division/resize_1280824598.jpg,79,Existing,,,,"Blk 79/79A, Circuit Road, Singapore 370079/371079",31/3/1971,11/05/2010,106,2CE611E5FC1F7BF0,20241211100036
